[
  {
    "imageUrl": "https://upload.wikimedia.org/wikipedia/commons/0/0a/Veste_Oberhaus_%28Passau%2C_full_spherical_panoramic_image%2C_equirectangular_projection%29.jpg",
    "name": "Wall and River",
    "coordinates": {
      "latitude": 48.57782197236379, 
      "longitude": 13.470866635738775
    }
  },

  {
    "imageUrl": "https://upload.wikimedia.org/wikipedia/commons/1/18/Rheingauer_Dom%2C_Geisenheim%2C_360_Panorama_%28Equirectangular_projection%29.jpg",
    "name": "Church",
    "coordinates": {
      "latitude": 49.98269312800746,
      "longitude": 7.967255024602168
    }
  },
  {
    "imageUrl": "https://upload.wikimedia.org/wikipedia/commons/6/6d/Efferen_360%C2%B0_Panorama.jpg",
    "name": "Green Place",
    "coordinates": {
      "latitude": 50.894350471223795, 
      "longitude": 6.89257645169015
    }
  },
  {
    "imageUrl": "http://blog.topazlabs.com/wp-content/uploads/2013/07/Screen-Shot-2013-12-11-at-10.42.18-AM.png",
    "name": "Mediterrannean Vibes",
    "coordinates": {
      "latitude": 36.43118785029059, 
      "longitude": 25.41363423709952
    }
  },
  {
    "imageUrl": "https://upload.wikimedia.org/wikipedia/commons/7/7e/Landschaftspark-Duisburg-Nord_Hochofen_Panorama.jpg",
    "name": "Industrial Place",
    "coordinates": {
      "latitude": 51.4829102990455, 
      "longitude": 6.781125869923839
    }
  },
  {
    "imageUrl": "https://cdn.eso.org/images/large/ESO_Paranal_360_Marcio_Cabral_Chile_07-CC.jpg",
    "name": "Observatory",
    "coordinates": {
      "latitude": -29.255997633233484,
      "longitude": -70.73760591948613
    }
  },
  {
    "imageUrl": "https://images.pexels.com/photos/5048124/pexels-photo-5048124.jpeg?auto=compress&cs=tinysrgb&dpr=28",
    "name": "Somewhere in Brazil",
    "coordinates": {
      "latitude": -15.822147635277783, 
      "longitude": -47.900568038440326
    }
  },
  {
    "imageUrl": "http://get.imglarger.com:8889/results/TLJ82SEY_4x.jpg",
    "name": "Bridge",
    "coordinates": {
      "latitude": 39.24398583665596, 
      "longitude": 117.26566176940985
    }
  }
]
